{
  "type": "FeatureCollection",
  "location": "titiksurvei",
  "crs": {
    "type": "location",
    "properties": { "location": "urn:ogc:def:crs:OGC:1.3:CRS84" }
  },
  "features": [
    {
      "type": "Feature",
      "properties": {
        "id": "titik4",
        "elevation": 25.12,
        "description": null,
        "location": "Permukiman dan Kolam",
        "img1": "IMG_8108.jpg",
        "img2": null,
        "img3": null
      },
      "geometry": { "type": "Point", "coordinates": [108.53145, -7.66022] }
    },
    {
      "type": "Feature",
      "properties": {
        "id": "titik8",
        "elevation": 132.2,
        "description": "Jalanan turun landai",
        "location": "Permukiman dan Perkarangan/Hutan (Jalan Turunan)",
        "img1": "IMG_8118.jpg",
        "img2": "IMG_8119.jpg",
        "img3": null
      },
      "geometry": { "type": "Point", "coordinates": [108.50344, -7.65304] }
    },
    {
      "type": "Feature",
      "properties": {
        "id": "titik16",
        "elevation": 12.15,
        "description": "Masih jauh dari pesisir (cek salinitas?)",
        "location": "Nipah di DAS Cijulang",
        "img1": "IMG_8145.jpg",
        "img2": "IMG_8146.jpg",
        "img3": null
      },
      "geometry": { "type": "Point", "coordinates": [108.46849, -7.74046] }
    },
    {
      "type": "Feature",
      "properties": {
        "id": "titik2",
        "elevation": 5.1,
        "description": null,
        "location": "Permukiman dan Perkarangan",
        "img1": "IMG_8106.jpg",
        "img2": null,
        "img3": null
      },
      "geometry": { "type": "Point", "coordinates": [108.49484, -7.70593] }
    },
    {
      "type": "Feature",
      "properties": {
        "id": "titik21",
        "elevation": 9.21,
        "description": "Kanan kiri jalan tambak",
        "location": "Tambak Perikanan (Udang)",
        "img1": "IMG_8162.jpg",
        "img2": null,
        "img3": null
      },
      "geometry": { "type": "Point", "coordinates": [108.57218, -7.68366] }
    },
    {
      "type": "Feature",
      "properties": {
        "id": "titik12",
        "elevation": 4.41,
        "description": null,
        "location": "Pesisir (Hilir DAS Cijulang)",
        "img1": "IMG_8130.jpg",
        "img2": "IMG_8131.jpg",
        "img3": null
      },
      "geometry": { "type": "Point", "coordinates": [108.49979, -7.71382] }
    },
    {
      "type": "Feature",
      "properties": {
        "id": "titik3",
        "elevation": 137.6,
        "description": null,
        "location": "SMP 2 Parigi",
        "img1": "IMG_8107.jpg",
        "img2": null,
        "img3": null
      },
      "geometry": { "type": "Point", "coordinates": [108.50598, -7.64216] }
    },
    {
      "type": "Feature",
      "properties": {
        "id": "titik6",
        "elevation": 159.2,
        "description": null,
        "location": "Jalan Menanjak (Masjid Bobalo)",
        "img1": "IMG_8111.jpg",
        "img2": null,
        "img3": null
      },
      "geometry": { "type": "Point", "coordinates": [108.50952, -7.6466] }
    },
    {
      "type": "Feature",
      "properties": {
        "id": "titik24",
        "elevation": 9.75,
        "description": "Ada warga mengambil air dari sungai untuk keperluan rumah tangga, usaha, kolam",
        "location": "Permukiman di pinggir DAS Citumang",
        "img1": "IMG_8179.jpg",
        "img2": "IMG_8182.jpg",
        "img3": null
      },
      "geometry": { "type": "Point", "coordinates": [108.54686, -7.65877] }
    },
    {
      "type": "Feature",
      "properties": {
        "id": "titik17",
        "elevation": 9.11,
        "description": "Nipah makin banyak",
        "location": "Batu Karas (arah Hilir DAS Cijulang)",
        "img1": "IMG_8148.jpg",
        "img2": "IMG_8149.jpg",
        "img3": null
      },
      "geometry": { "type": "Point", "coordinates": [108.4891, -7.7463] }
    },
    {
      "type": "Feature",
      "properties": {
        "id": "titik19",
        "elevation": 7.6,
        "description": "Tempat tukik bertelur?",
        "location": "Pantai (ada warung)",
        "img1": "IMG_8156.jpg",
        "img2": "IMG_8157.jpg",
        "img3": null
      },
      "geometry": { "type": "Point", "coordinates": [108.50928, -7.70391] }
    },
    {
      "type": "Feature",
      "properties": {
        "id": "titik15",
        "elevation": 8.3,
        "description": "Kanan kiri jalan raya",
        "location": "Green Canyon (DAS Cijulang)",
        "img1": "IMG_8142.jpg",
        "img2": "IMG_8143.jpg",
        "img3": null
      },
      "geometry": { "type": "Point", "coordinates": [108.45933, -7.73502] }
    },
    {
      "type": "Feature",
      "properties": {
        "id": "titik11",
        "elevation": 6.92,
        "description": null,
        "location": "Sawah",
        "img1": "IMG_8129.jpg",
        "img2": "IMG_8128.jpg",
        "img3": null
      },
      "geometry": { "type": "Point", "coordinates": [108.49735, -7.69179] }
    },
    {
      "type": "Feature",
      "properties": {
        "id": "titik9",
        "elevation": 44.31,
        "description": "Jalanan turun terjal",
        "location": "Permukiman dan Perkarangan/Hutan (Jalan Turunan)",
        "img1": "IMG_8120.jpg",
        "img2": "IMG_8122.jpg",
        "img3": null
      },
      "geometry": { "type": "Point", "coordinates": [108.49574, -7.67762] }
    },
    {
      "type": "Feature",
      "properties": {
        "id": "titik25",
        "elevation": 26.7,
        "description": "Pompa air dari sungai",
        "location": "Citumang Body Rafting",
        "img1": "IMG_8185.jpg",
        "img2": "IMG_8189.jpg",
        "img3": null
      },
      "geometry": { "type": "Point", "coordinates": [108.53846, -7.64901] }
    },
    {
      "type": "Feature",
      "properties": {
        "id": "titik22",
        "elevation": 3.93,
        "description": "Pertemuan 3 sungai",
        "location": "Jembatan Wiradinata Rangga Jipang",
        "img1": "IMG_8167.jpg",
        "img2": "IMG_8168.jpg",
        "img3": null
      },
      "geometry": { "type": "Point", "coordinates": [108.59519, -7.68082] }
    },
    {
      "type": "Feature",
      "properties": {
        "id": "titik23",
        "elevation": 5.03,
        "description": "Pernah banjir saat musim kemarau,  semua sawah terendam",
        "location": "Sawah (titik terendah)",
        "img1": "IMG_8178.jpg",
        "img2": null,
        "img3": null
      },
      "geometry": { "type": "Point", "coordinates": [108.55798, -7.67091] }
    },
    {
      "type": "Feature",
      "properties": {
        "id": "titik1",
        "elevation": 37.62,
        "description": null,
        "location": "Sawah dan Permukiman",
        "img1": "IMG_8105.jpg",
        "img2": null,
        "img3": null
      },
      "geometry": { "type": "Point", "coordinates": [108.52258, -7.65556] }
    },
    {
      "type": "Feature",
      "properties": {
        "id": "titik10",
        "elevation": 9.99,
        "description": null,
        "location": "Sawah dan Sungai",
        "img1": "IMG_8124.jpg",
        "img2": "IMG_8125.jpg",
        "img3": null
      },
      "geometry": { "type": "Point", "coordinates": [108.49382, -7.6823] }
    },
    {
      "type": "Feature",
      "properties": {
        "id": "titik7",
        "elevation": 126.8,
        "description": null,
        "location": "Kawasan Pemkab Pangandaran",
        "img1": "IMG_8113.jpg",
        "img2": "IMG_8114.jpg",
        "img3": null
      },
      "geometry": { "type": "Point", "coordinates": [108.50919, -7.65197] }
    },
    {
      "type": "Feature",
      "properties": {
        "id": "titik14",
        "elevation": 8.1,
        "description": null,
        "location": "Sawah di Hilir DAS Cijulang",
        "img1": "IMG_8137.jpg",
        "img2": null,
        "img3": null
      },
      "geometry": { "type": "Point", "coordinates": [108.48849, -7.71254] }
    },
    {
      "type": "Feature",
      "properties": {
        "id": "titik13",
        "elevation": 2.6,
        "description": null,
        "location": "Pesisir Pelabuhan",
        "img1": "IMG_8132.jpg",
        "img2": "IMG_8133.jpg",
        "img3": null
      },
      "geometry": { "type": "Point", "coordinates": [108.50205, -7.71299] }
    },
    {
      "type": "Feature",
      "properties": {
        "id": "titik20",
        "elevation": 9.1,
        "description": "Sawah lebih rendah dari jalan",
        "location": "Sawah di Utara Jalan Lintas Pesisir",
        "img1": "IMG_8161.jpg",
        "img2": null,
        "img3": null
      },
      "geometry": { "type": "Point", "coordinates": [108.52142, -7.69664] }
    },
    {
      "type": "Feature",
      "properties": {
        "id": "titik18",
        "elevation": 7.1,
        "description": "Bukit Batu Hiu titik tertinggi (elevasi ~35 m)",
        "location": "Jalan timur Batu Hiu",
        "img1": "IMG_8153.jpg",
        "img2": null,
        "img3": null
      },
      "geometry": { "type": "Point", "coordinates": [108.54187, -7.69048] }
    },
    {
      "type": "Feature",
      "properties": {
        "id": "titik5",
        "elevation": 8.4,
        "description": null,
        "location": "Sawah Arah Pemkab",
        "img1": "IMG_8109.jpg",
        "img2": "IMG_8110.jpg",
        "img3": null
      },
      "geometry": { "type": "Point", "coordinates": [108.54264, -7.67632] }
    }
  ]
}
